{
"type": "FeatureCollection",
"name": "Intersection Map.kmz",
"crs": { "type": "name", "properties": { "name": "urn:ogc:def:crs:OGC:1.3:CRS84" } },
"features": [
{ "type": "Feature", "properties": { "Name": "Rickenbacker Causeway & Virginia Beach Drive", "tessellate": -1, "extrude": 0, "visibility": -1, "intersectionId": "25.7336_-80.1623", "mapVersion": "20240301", "status": "provisioned" }, "geometry": { "type": "Point", "coordinates": [ -80.16233225, 25.73360345, 0.0 ] } },
{ "type": "Feature", "properties": { "Name": "Rickenbacker Causeway & Mast Academy", "tessellate": -1, "extrude": 0, "visibility": -1, "intersectionId": "25.7378_-80.1670", "mapVersion": "20240301", "status": "provisioned" }, "geometry": { "type": "Point", "coordinates": [ -80.1669645, 25.737781, 0.0 ] } },
{ "type": "Feature", "properties": { "Name": "Southwest 17th Avenue & South Bayshore Drive", "tessellate": -1, "extrude": 0, "visibility": -1, "intersectionId": "25.7399_-80.2215", "mapVersion": "20240301", "status": "provisioned" }, "geometry": { "type": "Point", "coordinates": [ -80.221491, 25.739931, 0.0 ] } },
{ "type": "Feature", "properties": { "Name": "South Miami Avenue & Southeast 32nd Road", "tessellate": -1, "extrude": 0, "visibility": -1, "intersectionId": "25.7477_-80.2100", "mapVersion": "20240301", "status": "provisioned" }, "geometry": { "type": "Point", "coordinates": [ -80.2099891, 25.7476721, 0.0 ] } },
{ "type": "Feature", "properties": { "Name": "South Miami Avenue & Brickell Avenue", "tessellate": -1, "extrude": 0, "visibility": -1, "intersectionId": "25.7502_-80.2064", "mapVersion": "20240301", "status": "provisioned" }, "geometry": { "type": "Point", "coordinates": [ -80.206395433333341, 25.7501763, 0.0 ] } },
{ "type": "Feature", "properties": { "Name": "South Miami Avenue & Southeast 26th Road", "tessellate": -1, "extrude": 0, "visibility": -1, "intersectionId": "25.7504_-80.2040", "mapVersion": "20240301", "status": "provisioned" }, "geometry": { "type": "Point", "coordinates": [ -80.20477755, 25.751343725, 0.0 ] } },
{ "type": "Feature", "properties": { "Name": "Brickell Ave & SE 25th Rd", "tessellate": -1, "extrude": 0, "visibility": -1, "intersectionId": "25.7520_-80.2016", "mapVersion": "20240301", "status": "provisioned" }, "geometry": { "type": "Point", "coordinates": [ -80.20157365, 25.75196285, 0.0 ] } },
{ "type": "Feature", "properties": { "Name": "South Miami Avenue & Southeast 25th Road", "tessellate": -1, "extrude": 0, "visibility": -1, "intersectionId": "25.7520_-80.2039", "mapVersion": "20240301", "status": "provisioned" }, "geometry": { "type": "Point", "coordinates": [ -80.2038661, 25.7519663, 0.0 ] } },
{ "type": "Feature", "properties": { "Name": "Southwest 25th Rd & I-95 NB Ramp", "tessellate": -1, "extrude": 0, "visibility": -1, "intersectionId": "25.7529_-80.2046", "mapVersion": "20240301", "status": "provisioned" }, "geometry": { "type": "Point", "coordinates": [ -80.2046172, 25.7528746, 0.0 ] } },
{ "type": "Feature", "properties": { "Name": "Southwest 25th Rd & I-95 SB Ramp", "tessellate": -1, "extrude": 0, "visibility": -1, "intersectionId": "25.7533_-80.2050", "mapVersion": "20240301", "status": "provisioned" }, "geometry": { "type": "Point", "coordinates": [ -80.205010800000011, 25.753327, 0.0 ] } },
{ "type": "Feature", "properties": { "Name": "Southwest 3rd Avenue & Southwest 26th Road", "tessellate": -1, "extrude": 0, "visibility": -1, "intersectionId": "25.7554_-80.2082", "mapVersion": "20240301", "status": "provisioned" }, "geometry": { "type": "Point", "coordinates": [ -80.208179225, 25.75540115, 0.0 ] } },
{ "type": "Feature", "properties": { "Name": "Brickell Ave & Brickell Townhouses - Bay Club", "tessellate": -1, "extrude": 0, "visibility": -1, "intersectionId": "25.7559_-80.1959", "mapVersion": "20240301", "status": "provisioned" }, "geometry": { "type": "Point", "coordinates": [ -80.19589830000001, 25.75585905, 0.0 ] } },
{ "type": "Feature", "properties": { "Name": "Brickell Avenue & Southeast 15th Road", "tessellate": -1, "extrude": 0, "visibility": -1, "intersectionId": "25.7580_-80.1929", "mapVersion": "20240301", "status": "provisioned" }, "geometry": { "type": "Point", "coordinates": [ -80.192887475, 25.757978675, 0.0 ] } },
{ "type": "Feature", "properties": { "Name": "Southwest 1st Avenue & Southwest 15th Road", "tessellate": -1, "extrude": 0, "visibility": -1, "intersectionId": "25.7592_-80.1950", "mapVersion": "20240301", "status": "provisioned" }, "geometry": { "type": "Point", "coordinates": [ -80.1950383, 25.759219, 0.0 ] } },
{ "type": "Feature", "properties": { "Name": "Southeast 14th Street & Brickell Avenue", "tessellate": -1, "extrude": 0, "visibility": -1, "intersectionId": "25.7604_-80.1922", "mapVersion": "20240301", "status": "provisioned" }, "geometry": { "type": "Point", "coordinates": [ -80.19221665, 25.7603626, 0.0 ] } },
{ "type": "Feature", "properties": { "Name": "Southeast 13th Street & Brickell Avenue", "tessellate": -1, "extrude": 0, "visibility": -1, "intersectionId": "25.7617_-80.1919", "mapVersion": "20240301", "status": "provisioned" }, "geometry": { "type": "Point", "coordinates": [ -80.19183630000002, 25.761739633333331, 0.0 ] } },
{ "type": "Feature", "properties": { "Name": "Southeast 10th Street & Brickell Avenue", "tessellate": -1, "extrude": 0, "visibility": -1, "intersectionId": "25.7642_-80.1912", "mapVersion": "20240301", "status": "provisioned" }, "geometry": { "type": "Point", "coordinates": [ -80.19121805, 25.7642027, 0.0 ] } },
{ "type": "Feature", "properties": { "Name": "Southeast 8th Street & Brickell Avenue", "tessellate": -1, "extrude": 0, "visibility": -1, "intersectionId": "25.7662_-80.1907", "mapVersion": "20240301", "status": "provisioned" }, "geometry": { "type": "Point", "coordinates": [ -80.190699, 25.76617065, 0.0 ] } },
{ "type": "Feature", "properties": { "Name": "Southwest 3rd Avenue & Southwest 8th Street", "tessellate": -1, "extrude": 0, "visibility": -1, "intersectionId": "25.7662_-80.1991", "mapVersion": "20240301", "status": "provisioned" }, "geometry": { "type": "Point", "coordinates": [ -80.1990954, 25.766246, 0.0 ] } },
{ "type": "Feature", "properties": { "Name": "Brickell Avenue & SE 7th St", "tessellate": -1, "extrude": 0, "visibility": -1, "intersectionId": "25.7670_-80.1904", "mapVersion": "20240301", "status": "provisioned" }, "geometry": { "type": "Point", "coordinates": [ -80.1904714, 25.767067, 0.0 ] } },
{ "type": "Feature", "properties": { "Name": "Southwest 7th Street & Southwest 3rd Avenue", "tessellate": -1, "extrude": 0, "visibility": -1, "intersectionId": "25.7672_-80.1991", "mapVersion": "20240301", "status": "provisioned" }, "geometry": { "type": "Point", "coordinates": [ -80.1991259, 25.767207, 0.0 ] } },
{ "type": "Feature", "properties": { "Name": "Southwest 7th Street", "tessellate": -1, "extrude": 0, "visibility": -1, "intersectionId": "25.7673_-80.1947", "mapVersion": "20240301", "status": "provisioned" }, "geometry": { "type": "Point", "coordinates": [ -80.1947197, 25.76733620000001, 0.0 ] } },
{ "type": "Feature", "properties": { "Name": "Southwest 1st Court & Southwest 7th Street", "tessellate": -1, "extrude": 0, "visibility": -1, "intersectionId": "25.7673_-80.1958", "mapVersion": "20240301", "status": "provisioned" }, "geometry": { "type": "Point", "coordinates": [ -80.1957785, 25.7673067, 0.0 ] } },
{ "type": "Feature", "properties": { "Name": "Southwest 2nd Avenue & Southwest 7th Street", "tessellate": -1, "extrude": 0, "visibility": -1, "intersectionId": "25.7673_-80.1975", "mapVersion": "20240301", "status": "provisioned" }, "geometry": { "type": "Point", "coordinates": [ -80.1974751, 25.7672552, 0.0 ] } },
{ "type": "Feature", "properties": { "Name": "Southeast 7th St & Brickell City Center", "tessellate": -1, "extrude": 0, "visibility": -1, "intersectionId": "25.7674_-80.1928", "mapVersion": "20240301", "status": "provisioned" }, "geometry": { "type": "Point", "coordinates": [ -80.19277790000001, 25.7673965, 0.0 ] } },
{ "type": "Feature", "properties": { "Name": "Southeast 7th Street & South Miami Avenue", "tessellate": -1, "extrude": 0, "visibility": -1, "intersectionId": "25.7674_-80.1934", "mapVersion": "20240301", "status": "provisioned" }, "geometry": { "type": "Point", "coordinates": [ -80.1933412, 25.767378, 0.0 ] } },
{ "type": "Feature", "properties": { "Name": "Southwest 1st Avenue", "tessellate": -1, "extrude": 0, "visibility": -1, "intersectionId": "25.7675_-80.1949", "mapVersion": "20240301", "status": "provisioned" }, "geometry": { "type": "Point", "coordinates": [ -80.1949375, 25.7674732, 0.0 ] } },
{ "type": "Feature", "properties": { "Name": "Harbor Drive & Crandon Boulevard", "tessellate": -1, "extrude": 0, "visibility": -1, "intersectionId": "25.6993_-80.1622", "mapVersion": "20240301", "status": "provisioned" }, "geometry": { "type": "Point", "coordinates": [ -80.162167075000013, 25.699335125, 0.0 ] } },
{ "type": "Feature", "properties": { "Name": "Brickell Avenue & Rickenbacker Causeway", "tessellate": -1, "extrude": 0, "visibility": -1 }, "geometry": { "type": "Point", "coordinates": [ -80.203996858853387, 25.75041530510633, 0.0 ] } }
]
}
